{"people":["Jim Houser","Kathy","Wright","Kathy Proctor","James Howard","Dwight Eisenhower","Robert Kennedy","Ms. Waters","Gary Allen","Bruce Randolph","Brandon","Mr. Speaker","Gabby Giffords","Mr. Vice President"],"organizations":["Interstate Highway System","Commerce Department","California Institute of Technology","Edison","Pentagon","Center Rock","Oregon","Nation","Taliban","United States of America","House","NATO","Interior Department","Oak Ridge National Laboratory","Forsyth Tech","Congress","Union","Federal Government","Secretary of Defense","Allen Brothers","Afghan Government","Al Qaida","Iranian Government","Government","American Dream","NASA","White House","Brandon Fisher","Google","John Boehner"],"places":[{"name":"United States","latitude":39.76,"longitude":-98.5,"place_type":"Country"},{"name":"Iran","latitude":32.0,"longitude":53.0,"place_type":"Country"},{"name":"West","latitude":30.86017,"longitude":72.31976,"place_type":"Adm"},{"name":"North Korea","latitude":40.0,"longitude":127.0,"place_type":"Country"},{"name":"Europe","latitude":43.5333,"longitude":3.9833,"place_type":"Hotel"},{"name":"Chile","latitude":-30.0,"longitude":-71.0,"place_type":"Country"},{"name":"Colombia","latitude":4.0,"longitude":-72.0,"place_type":"Country"},{"name":"Iowa","latitude":42.00027,"longitude":-93.50049,"place_type":"Adm"},{"name":"Alabama","latitude":32.75041,"longitude":-86.75026,"place_type":"Adm"},{"name":"Iraq","latitude":33.0,"longitude":44.0,"place_type":"Country"},{"name":"India","latitude":20.0,"longitude":77.0,"place_type":"Country"},{"name":"California","latitude":37.25022,"longitude":-119.75126,"place_type":"Adm"},{"name":"Cincinnati","latitude":39.162,"longitude":-84.45689,"place_type":"City"},{"name":"United States of America","latitude":39.76,"longitude":-98.5,"place_type":"Country"},{"name":"Tunisia","latitude":34.0,"longitude":9.0,"place_type":"Country"},{"name":"Asia Pacific","latitude":1.33722,"longitude":103.65028,"place_type":"Factory"},{"name":"China","latitude":35.0,"longitude":105.0,"place_type":"Country"},{"name":"Panama","latitude":9.0,"longitude":-80.0,"place_type":"Country"},{"name":"Pakistan","latitude":30.0,"longitude":70.0,"place_type":"Country"},{"name":"Washington","latitude":47.50012,"longitude":-120.50147,"place_type":"Adm"},{"name":"Earth","latitude":44.0333,"longitude":-94.0669,"place_type":"Adm"},{"name":"Korean Peninsula","latitude":34.75667,"longitude":126.44583,"place_type":"GisFeature"},{"name":"Moon","latitude":40.51856,"longitude":-80.21736,"place_type":"City"},{"name":"Berlin","latitude":52.5233,"longitude":13.41377,"place_type":"Adm"},{"name":"Texas","latitude":31.25044,"longitude":-99.25061,"place_type":"Adm"},{"name":"Sudan","latitude":16.0,"longitude":30.0,"place_type":"Country"},{"name":"Korea","latitude":37.0,"longitude":127.5,"place_type":"Country"},{"name":"Tucson","latitude":32.22174,"longitude":-110.92648,"place_type":"City"},{"name":"Arabian Peninsula","latitude":25.0,"longitude":45.0,"place_type":"GisFeature"},{"name":"America","latitude":39.76,"longitude":-98.5,"place_type":"Country"},{"name":"Brazil","latitude":-10.0,"longitude":-55.0,"place_type":"Country"},{"name":"North Carolina","latitude":35.50069,"longitude":-80.00032,"place_type":"Adm"},{"name":"Denver","latitude":39.73915,"longitude":-104.9847,"place_type":"City"},{"name":"Michigan","latitude":44.25029,"longitude":-85.50033,"place_type":"Adm"},{"name":"Russia","latitude":60.0,"longitude":100.0,"place_type":"Country"},{"name":"Pennsylvania","latitude":40.27245,"longitude":-76.90567,"place_type":"Adm"},{"name":"Colorado","latitude":39.00027,"longitude":-105.50083,"place_type":"Adm"},{"name":"Scranton","latitude":41.40897,"longitude":-75.66241,"place_type":"City"},{"name":"South Korea","latitude":37.0,"longitude":127.5,"place_type":"Country"},{"name":"Midwest","latitude":35.44951,"longitude":-97.3967,"place_type":"City"}]}