{"people":["Leonard Abess","Moon","Teddy Roosevelt","Edward Kennedy","Orrin Hatch","Biden","Ty'Sheoma Bethea","Mr. Vice President"],"organizations":["Kansas","Government","Nation","Congress","United States of America","Federal Government"],"places":[{"name":"United States","latitude":39.76,"longitude":-98.5,"place_type":"Country"},{"name":"Miami","latitude":26.00002,"longitude":-80.1947,"place_type":"GisFeature"},{"name":"Earth","latitude":44.0333,"longitude":-94.0669,"place_type":"Adm"},{"name":"Washington","latitude":47.50012,"longitude":-120.50147,"place_type":"Adm"},{"name":"Pakistan","latitude":30.0,"longitude":70.0,"place_type":"Country"},{"name":"South Carolina","latitude":34.00043,"longitude":-81.00009,"place_type":"Adm"},{"name":"Dillon","latitude":34.41683,"longitude":-79.41644,"place_type":"Adm"},{"name":"Greensburg","latitude":40.30146,"longitude":-79.53893,"place_type":"City"},{"name":"Israel","latitude":31.5,"longitude":34.75,"place_type":"Country"},{"name":"Minneapolis","latitude":44.95751,"longitude":-93.17848,"place_type":"GisFeature"},{"name":"Afghanistan","latitude":33.0,"longitude":66.0,"place_type":"Country"},{"name":"Korea","latitude":37.0,"longitude":127.5,"place_type":"Country"},{"name":"Iraq","latitude":33.0,"longitude":44.0,"place_type":"Country"},{"name":"America","latitude":39.76,"longitude":-98.5,"place_type":"Country"},{"name":"United States of America","latitude":39.76,"longitude":-98.5,"place_type":"Country"},{"name":"Guantanamo Bay","latitude":19.90444,"longitude":-75.10142,"place_type":"Prison"},{"name":"Germany","latitude":51.5,"longitude":10.5,"place_type":"Country"},{"name":"China","latitude":35.0,"longitude":105.0,"place_type":"Country"},{"name":"Japan","latitude":35.68536,"longitude":139.7531,"place_type":"Country"}]}