{"places":[{"name":"United States","latitude":39.76,"longitude":-98.5,"place_type":"Country"},{"name":"Philippines","latitude":13.0,"longitude":122.0,"place_type":"Country"},{"name":"Iran","latitude":32.0,"longitude":53.0,"place_type":"Country"},{"name":"Mali","latitude":17.0,"longitude":-4.0,"place_type":"Country"},{"name":"Ukraine","latitude":49.0,"longitude":32.0,"place_type":"Country"},{"name":"Syria","latitude":35.0,"longitude":38.0,"place_type":"Country"},{"name":"Europe","latitude":43.5333,"longitude":3.9833,"place_type":"Hotel"},{"name":"Afghanistan","latitude":33.0,"longitude":66.0,"place_type":"Country"},{"name":"Iraq","latitude":33.0,"longitude":44.0,"place_type":"Country"},{"name":"Detroit","latitude":42.34231,"longitude":-83.07175,"place_type":"GisFeature"},{"name":"Burma","latitude":22.0,"longitude":98.0,"place_type":"Country"},{"name":"Yemen","latitude":15.5,"longitude":47.5,"place_type":"Country"},{"name":"Omaha Beach","latitude":43.39552,"longitude":-95.15305,"place_type":"Beach"},{"name":"Tennessee","latitude":35.75035,"longitude":-86.25027,"place_type":"Adm"},{"name":"Guantanamo Bay","latitude":19.90444,"longitude":-75.10142,"place_type":"Prison"},{"name":"Tunisia","latitude":34.0,"longitude":9.0,"place_type":"Country"},{"name":"Asia","latitude":9.56667,"longitude":122.6,"place_type":"Adm"},{"name":"China","latitude":35.0,"longitude":105.0,"place_type":"Country"},{"name":"Ohio","latitude":40.25034,"longitude":-83.00018,"place_type":"Adm"},{"name":"Somalia","latitude":6.0,"longitude":48.0,"place_type":"Country"},{"name":"Asia-Pacific","latitude":1.33722,"longitude":103.65028,"place_type":"Factory"},{"name":"Raleigh","latitude":35.7721,"longitude":-78.63861,"place_type":"City"},{"name":"Washington","latitude":47.50012,"longitude":-120.50147,"place_type":"Adm"},{"name":"Earth","latitude":44.0333,"longitude":-94.0669,"place_type":"Adm"},{"name":"Minneapolis","latitude":44.95751,"longitude":-93.17848,"place_type":"GisFeature"},{"name":"U.S.A.","latitude":49.4001,"longitude":-69.04902,"place_type":"Lake"},{"name":"Youngstown","latitude":41.09978,"longitude":-80.64952,"place_type":"City"},{"name":"New York City","latitude":40.71427,"longitude":-74.00597,"place_type":"City"},{"name":"America","latitude":39.76,"longitude":-98.5,"place_type":"Country"},{"name":"North Carolina","latitude":35.50069,"longitude":-80.00032,"place_type":"Adm"},{"name":"Arizona","latitude":34.5003,"longitude":-111.50098,"place_type":"Adm"},{"name":"Africa","latitude":-30.0,"longitude":26.0,"place_type":"Country"},{"name":"Kentucky","latitude":38.20042,"longitude":-84.87762,"place_type":"Adm"},{"name":"Soviet Union","latitude":38.90344,"longitude":-77.03942,"place_type":"Pond"}]}