{"places":[{"name":"United States","latitude":39.76,"longitude":-98.5,"place_type":"Country"},{"name":"Iran","latitude":32.0,"longitude":53.0,"place_type":"Country"},{"name":"Mali","latitude":17.0,"longitude":-4.0,"place_type":"Country"},{"name":"Blacksburg","latitude":37.22957,"longitude":-80.41394,"place_type":"City"},{"name":"Chicago","latitude":41.70778,"longitude":-87.89062,"place_type":"GisFeature"},{"name":"Europe","latitude":43.5333,"longitude":3.9833,"place_type":"Hotel"},{"name":"North Korea","latitude":40.0,"longitude":127.0,"place_type":"Country"},{"name":"Israel","latitude":31.5,"longitude":34.75,"place_type":"Country"},{"name":"Afghanistan","latitude":33.0,"longitude":66.0,"place_type":"Country"},{"name":"Burma","latitude":22.0,"longitude":98.0,"place_type":"Country"},{"name":"Aurora","latitude":39.72943,"longitude":-104.83192,"place_type":"City"},{"name":"Yemen","latitude":15.5,"longitude":47.5,"place_type":"Country"},{"name":"United States of America","latitude":39.76,"longitude":-98.5,"place_type":"Country"},{"name":"Wisconsin","latitude":44.50024,"longitude":-90.00041,"place_type":"Adm"},{"name":"Asia","latitude":9.56667,"longitude":122.6,"place_type":"Adm"},{"name":"Middle East","latitude":41.06665,"longitude":-104.65996,"place_type":"GisFeature"},{"name":"China","latitude":35.0,"longitude":105.0,"place_type":"Country"},{"name":"Rangoon","latitude":16.80528,"longitude":96.15611,"place_type":"City"},{"name":"Ohio","latitude":40.25034,"longitude":-83.00018,"place_type":"Adm"},{"name":"Somalia","latitude":6.0,"longitude":48.0,"place_type":"Country"},{"name":"Atlantic","latitude":39.46678,"longitude":-74.66627,"place_type":"Adm"},{"name":"Earth","latitude":44.0333,"longitude":-94.0669,"place_type":"Adm"},{"name":"Washington","latitude":47.50012,"longitude":-120.50147,"place_type":"Adm"},{"name":"Brooklyn","latitude":40.6501,"longitude":-73.94958,"place_type":"CitySubdivision"},{"name":"Union","latitude":20.0,"longitude":77.0,"place_type":"Country"},{"name":"Libya","latitude":25.0,"longitude":17.0,"place_type":"Country"},{"name":"Tucson","latitude":32.22174,"longitude":-110.92648,"place_type":"City"},{"name":"Egypt","latitude":27.0,"longitude":30.0,"place_type":"Country"},{"name":"New York City","latitude":40.71427,"longitude":-74.00597,"place_type":"City"},{"name":"Youngstown","latitude":41.09978,"longitude":-80.64952,"place_type":"City"},{"name":"Arabian Peninsula","latitude":25.0,"longitude":45.0,"place_type":"GisFeature"},{"name":"America","latitude":39.76,"longitude":-98.5,"place_type":"Country"},{"name":"Oklahoma","latitude":35.49209,"longitude":-97.50328,"place_type":"Adm"},{"name":"Newtown","latitude":-33.89835,"longitude":151.17754,"place_type":"CitySubdivision"},{"name":"Mexico","latitude":23.0,"longitude":-102.0,"place_type":"Country"},{"name":"North Carolina","latitude":35.50069,"longitude":-80.00032,"place_type":"Adm"},{"name":"North Miami","latitude":25.89009,"longitude":-80.18671,"place_type":"City"},{"name":"Africa","latitude":-30.0,"longitude":26.0,"place_type":"Country"},{"name":"Russia","latitude":60.0,"longitude":100.0,"place_type":"Country"},{"name":"Georgia","latitude":32.75042,"longitude":-83.50018,"place_type":"Adm"},{"name":"Germany","latitude":51.5,"longitude":10.5,"place_type":"Country"},{"name":"Japan","latitude":35.68536,"longitude":139.7531,"place_type":"Country"}]}